[
  {
    "title": "Eiffelova věž, Paříž",
    "imageUrls": [
      "https://images.unsplash.com/photo-1511739001486-6bfe10ce785f?w=1200&h=800&fit=crop",
      "https://images.unsplash.com/photo-1549144511-f099e773c147?w=1200&h=800&fit=crop",
      "https://images.unsplash.com/photo-1513635269975-59663e0ac1ad?w=1200&h=800&fit=crop"
    ],
    "lat": 48.8584,
    "lng": 2.2945,
    "country": "Francie",
    "region": "Île-de-France"
  },
  {
    "title": "Big Ben, Londýn",
    "imageUrls": [
      "https://images.unsplash.com/photo-1513635269975-59663e0ac1ad?w=1200&h=800&fit=crop",
      "https://images.unsplash.com/photo-1513635269975-59663e0ac1ad?w=1200&h=800&fit=crop&auto=format",
      "https://images.unsplash.com/photo-1505142468610-359e7d316be0?w=1200&h=800&fit=crop"
    ],
    "lat": 51.4994,
    "lng": -0.1245,
    "country": "Velká Británie",
    "region": "Anglie"
  },
  {
    "title": "Koloseum, Řím",
    "imageUrls": [
      "https://images.unsplash.com/photo-1515542622106-78bda8ba0e5b?w=1200&h=800&fit=crop",
      "https://images.unsplash.com/photo-1529260830199-42c24126f198?w=1200&h=800&fit=crop",
      "https://images.unsplash.com/photo-1552832230-c0197dd311b5?w=1200&h=800&fit=crop"
    ],
    "lat": 41.8902,
    "lng": 12.4922,
    "country": "Itálie",
    "region": "Lazio"
  },
  {
    "title": "Sagrada Família, Barcelona",
    "imageUrls": [
      "https://images.unsplash.com/photo-1539037116277-4db20889f2d4?w=1200&h=800&fit=crop",
      "https://images.unsplash.com/photo-1555993531-9d8a8e5e5b5b?w=1200&h=800&fit=crop",
      "https://images.unsplash.com/photo-1547036967-23d11aacaee0?w=1200&h=800&fit=crop"
    ],
    "lat": 41.4036,
    "lng": 2.1744,
    "country": "Španělsko",
    "region": "Katalánsko"
  },
  {
    "title": "Brandenburská brána, Berlín",
    "imageUrls": [
      "https://images.unsplash.com/photo-1587330979470-3595ac045cb0?w=1200&h=800&fit=crop",
      "https://images.unsplash.com/photo-1502602898657-3e91760cbb34?w=1200&h=800&fit=crop",
      "https://images.unsplash.com/photo-1526392060635-9d6019884377?w=1200&h=800&fit=crop"
    ],
    "lat": 52.5163,
    "lng": 13.3777,
    "country": "Německo",
    "region": "Berlín"
  },
  {
    "title": "Akropolis, Athény",
    "imageUrls": [
      "https://images.unsplash.com/photo-1603574670812-d245608802a8?w=1200&h=800&fit=crop",
      "https://images.unsplash.com/photo-1524492412937-b28074a5d7da?w=1200&h=800&fit=crop",
      "https://images.unsplash.com/photo-1483729558449-99ef09a8c325?w=1200&h=800&fit=crop"
    ],
    "lat": 37.9715,
    "lng": 23.7268,
    "country": "Řecko",
    "region": "Attika"
  },
  {
    "title": "Karlův most, Praha",
    "imageUrls": [
      "https://images.unsplash.com/photo-1555993531-9d8a8e5e5b5b?w=1200&h=800&fit=crop",
      "https://images.unsplash.com/photo-1559827260-dc66d52bef19?w=1200&h=800&fit=crop",
      "https://images.unsplash.com/photo-1552461719-7a8b2b3b3b3b?w=1200&h=800&fit=crop"
    ],
    "lat": 50.0865,
    "lng": 14.4114,
    "country": "Česká republika",
    "region": "Praha"
  },
  {
    "title": "Statue of Liberty, New York",
    "imageUrls": [
      "https://images.unsplash.com/photo-1547036967-23d11aacaee0?w=1200&h=800&fit=crop",
      "https://images.unsplash.com/photo-1501594907352-04cda38ebc29?w=1200&h=800&fit=crop",
      "https://images.unsplash.com/photo-1506905925346-21bda4d32df4?w=1200&h=800&fit=crop"
    ],
    "lat": 40.6892,
    "lng": -74.0445,
    "country": "USA",
    "region": "New York"
  },
  {
    "title": "Golden Gate Bridge, San Francisco",
    "imageUrls": [
      "https://images.unsplash.com/photo-1501594907352-04cda38ebc29?w=1200&h=800&fit=crop",
      "https://images.unsplash.com/photo-1505142468610-359e7d316be0?w=1200&h=800&fit=crop",
      "https://images.unsplash.com/photo-1502602898657-3e91760cbb34?w=1200&h=800&fit=crop"
    ],
    "lat": 37.8199,
    "lng": -122.4783,
    "country": "USA",
    "region": "Kalifornie"
  },
  {
    "title": "Sydney Opera House",
    "imageUrls": [
      "https://images.unsplash.com/photo-1506905925346-21bda4d32df4?w=1200&h=800&fit=crop",
      "https://images.unsplash.com/photo-1526392060635-9d6019884377?w=1200&h=800&fit=crop",
      "https://images.unsplash.com/photo-1524492412937-b28074a5d7da?w=1200&h=800&fit=crop"
    ],
    "lat": -33.8568,
    "lng": 151.2153,
    "country": "Austrálie",
    "region": "New South Wales"
  },
  {
    "title": "Tower Bridge, Londýn",
    "imageUrls": [
      "https://images.unsplash.com/photo-1505142468610-359e7d316be0?w=1200&h=800&fit=crop",
      "https://images.unsplash.com/photo-1511739001486-6bfe10ce785f?w=1200&h=800&fit=crop",
      "https://images.unsplash.com/photo-1513635269975-59663e0ac1ad?w=1200&h=800&fit=crop"
    ],
    "lat": 51.5055,
    "lng": -0.0754,
    "country": "Velká Británie",
    "region": "Anglie"
  },
  {
    "title": "Notre-Dame, Paříž",
    "imageUrls": [
      "https://images.unsplash.com/photo-1502602898657-3e91760cbb34?w=1200&h=800&fit=crop",
      "https://images.unsplash.com/photo-1511739001486-6bfe10ce785f?w=1200&h=800&fit=crop",
      "https://images.unsplash.com/photo-1549144511-f099e773c147?w=1200&h=800&fit=crop"
    ],
    "lat": 48.8530,
    "lng": 2.3499,
    "country": "Francie",
    "region": "Île-de-France"
  },
  {
    "title": "Machu Picchu, Peru",
    "imageUrls": [
      "https://images.unsplash.com/photo-1526392060635-9d6019884377?w=1200&h=800&fit=crop",
      "https://images.unsplash.com/photo-1559827260-dc66d52bef19?w=1200&h=800&fit=crop",
      "https://images.unsplash.com/photo-1552461719-7a8b2b3b3b3b?w=1200&h=800&fit=crop"
    ],
    "lat": -13.1631,
    "lng": -72.5450,
    "country": "Peru",
    "region": "Cusco"
  },
  {
    "title": "Taj Mahal, Agra",
    "imageUrls": [
      "https://images.unsplash.com/photo-1524492412937-b28074a5d7da?w=1200&h=800&fit=crop",
      "https://images.unsplash.com/photo-1483729558449-99ef09a8c325?w=1200&h=800&fit=crop",
      "https://images.unsplash.com/photo-1578632767115-351597cf2477?w=1200&h=800&fit=crop"
    ],
    "lat": 27.1751,
    "lng": 78.0421,
    "country": "Indie",
    "region": "Uttar Pradesh"
  },
  {
    "title": "Christ the Redeemer, Rio de Janeiro",
    "imageUrls": [
      "https://images.unsplash.com/photo-1483729558449-99ef09a8c325?w=1200&h=800&fit=crop",
      "https://images.unsplash.com/photo-1508804185872-d7badad00f7d?w=1200&h=800&fit=crop",
      "https://images.unsplash.com/photo-1539650116574-75c0c6d73a6e?w=1200&h=800&fit=crop"
    ],
    "lat": -22.9519,
    "lng": -43.2105,
    "country": "Brazílie",
    "region": "Rio de Janeiro"
  },
  {
    "title": "Petra, Jordánsko",
    "imageUrls": [
      "https://images.unsplash.com/photo-1559827260-dc66d52bef19?w=1200&h=800&fit=crop",
      "https://images.unsplash.com/photo-1526392060635-9d6019884377?w=1200&h=800&fit=crop",
      "https://images.unsplash.com/photo-1524492412937-b28074a5d7da?w=1200&h=800&fit=crop"
    ],
    "lat": 30.3285,
    "lng": 35.4444,
    "country": "Jordánsko",
    "region": "Ma'an"
  },
  {
    "title": "Angkor Wat, Kambodža",
    "imageUrls": [
      "https://images.unsplash.com/photo-1552461719-7a8b2b3b3b3b?w=1200&h=800&fit=crop",
      "https://images.unsplash.com/photo-1508804185872-d7badad00f7d?w=1200&h=800&fit=crop",
      "https://images.unsplash.com/photo-1539650116574-75c0c6d73a6e?w=1200&h=800&fit=crop"
    ],
    "lat": 13.4125,
    "lng": 103.8670,
    "country": "Kambodža",
    "region": "Siem Reap"
  },
  {
    "title": "Mount Fuji, Japonsko",
    "imageUrls": [
      "https://images.unsplash.com/photo-1578632767115-351597cf2477?w=1200&h=800&fit=crop",
      "https://images.unsplash.com/photo-1508804185872-d7badad00f7d?w=1200&h=800&fit=crop",
      "https://images.unsplash.com/photo-1539650116574-75c0c6d73a6e?w=1200&h=800&fit=crop"
    ],
    "lat": 35.3606,
    "lng": 138.7274,
    "country": "Japonsko",
    "region": "Shizuoka"
  },
  {
    "title": "Great Wall of China, Peking",
    "imageUrls": [
      "https://images.unsplash.com/photo-1508804185872-d7badad00f7d?w=1200&h=800&fit=crop",
      "https://images.unsplash.com/photo-1539650116574-75c0c6d73a6e?w=1200&h=800&fit=crop",
      "https://images.unsplash.com/photo-1578632767115-351597cf2477?w=1200&h=800&fit=crop"
    ],
    "lat": 40.4319,
    "lng": 116.5704,
    "country": "Čína",
    "region": "Peking"
  },
  {
    "title": "Pyramidy v Gíze, Egypt",
    "imageUrls": [
      "https://images.unsplash.com/photo-1539650116574-75c0c6d73a6e?w=1200&h=800&fit=crop",
      "https://images.unsplash.com/photo-1508804185872-d7badad00f7d?w=1200&h=800&fit=crop",
      "https://images.unsplash.com/photo-1578632767115-351597cf2477?w=1200&h=800&fit=crop"
    ],
    "lat": 29.9792,
    "lng": 31.1342,
    "country": "Egypt",
    "region": "Gíza"
  }
]
