[
  {
    "title": "Eiffelova věž, Paříž",
    "panoUrl": "/pano.jpg",
    "lat": 48.8584,
    "lng": 2.2945,
    "country": "Francie",
    "region": "Île-de-France"
  },
  {
    "title": "Big Ben, Londýn",
    "panoUrl": "/pano.jpg",
    "lat": 51.4994,
    "lng": -0.1245,
    "country": "Velká Británie",
    "region": "Anglie"
  },
  {
    "title": "Koloseum, Řím",
    "panoUrl": "/pano.jpg",
    "lat": 41.8902,
    "lng": 12.4922,
    "country": "Itálie",
    "region": "Lazio"
  },
  {
    "title": "Sagrada Família, Barcelona",
    "panoUrl": "/pano.jpg",
    "lat": 41.4036,
    "lng": 2.1744,
    "country": "Španělsko",
    "region": "Katalánsko"
  },
  {
    "title": "Brandenburská brána, Berlín",
    "panoUrl": "/pano.jpg",
    "lat": 52.5163,
    "lng": 13.3777,
    "country": "Německo",
    "region": "Berlín"
  },
  {
    "title": "Akropolis, Athény",
    "panoUrl": "/pano.jpg",
    "lat": 37.9715,
    "lng": 23.7268,
    "country": "Řecko",
    "region": "Attika"
  },
  {
    "title": "Karlův most, Praha",
    "panoUrl": "/pano.jpg",
    "lat": 50.0865,
    "lng": 14.4114,
    "country": "Česká republika",
    "region": "Praha"
  },
  {
    "title": "Statue of Liberty, New York",
    "panoUrl": "/pano.jpg",
    "lat": 40.6892,
    "lng": -74.0445,
    "country": "USA",
    "region": "New York"
  },
  {
    "title": "Golden Gate Bridge, San Francisco",
    "panoUrl": "/pano.jpg",
    "lat": 37.8199,
    "lng": -122.4783,
    "country": "USA",
    "region": "Kalifornie"
  },
  {
    "title": "Sydney Opera House",
    "panoUrl": "/pano.jpg",
    "lat": -33.8568,
    "lng": 151.2153,
    "country": "Austrálie",
    "region": "New South Wales"
  },
  {
    "title": "Tower Bridge, Londýn",
    "panoUrl": "/pano.jpg",
    "lat": 51.5055,
    "lng": -0.0754,
    "country": "Velká Británie",
    "region": "Anglie"
  },
  {
    "title": "Notre-Dame, Paříž",
    "panoUrl": "/pano.jpg",
    "lat": 48.8530,
    "lng": 2.3499,
    "country": "Francie",
    "region": "Île-de-France"
  },
  {
    "title": "Machu Picchu, Peru",
    "panoUrl": "/pano.jpg",
    "lat": -13.1631,
    "lng": -72.5450,
    "country": "Peru",
    "region": "Cusco"
  },
  {
    "title": "Taj Mahal, Agra",
    "panoUrl": "/pano.jpg",
    "lat": 27.1751,
    "lng": 78.0421,
    "country": "Indie",
    "region": "Uttar Pradesh"
  },
  {
    "title": "Christ the Redeemer, Rio de Janeiro",
    "panoUrl": "/pano.jpg",
    "lat": -22.9519,
    "lng": -43.2105,
    "country": "Brazílie",
    "region": "Rio de Janeiro"
  },
  {
    "title": "Petra, Jordánsko",
    "panoUrl": "/pano.jpg",
    "lat": 30.3285,
    "lng": 35.4444,
    "country": "Jordánsko",
    "region": "Ma'an"
  },
  {
    "title": "Angkor Wat, Kambodža",
    "panoUrl": "/pano.jpg",
    "lat": 13.4125,
    "lng": 103.8670,
    "country": "Kambodža",
    "region": "Siem Reap"
  },
  {
    "title": "Mount Fuji, Japonsko",
    "panoUrl": "/pano.jpg",
    "lat": 35.3606,
    "lng": 138.7274,
    "country": "Japonsko",
    "region": "Shizuoka"
  },
  {
    "title": "Great Wall of China, Peking",
    "panoUrl": "/pano.jpg",
    "lat": 40.4319,
    "lng": 116.5704,
    "country": "Čína",
    "region": "Peking"
  },
  {
    "title": "Pyramidy v Gíze, Egypt",
    "panoUrl": "/pano.jpg",
    "lat": 29.9792,
    "lng": 31.1342,
    "country": "Egypt",
    "region": "Gíza"
  }
]
